{"type":"FeatureCollection","features":[{"type":"Feature","geometry":{"type":"Point","coordinates":[-82.6903968717,27.8847422519]},"properties":{"State":"Florida","County":"PINELLAS","City":"CLEARWATER","Address":"4550 ULMERTON RD","Zipcode":33762,"Name":"SUNSHINE SPEEDWAY AND DRAGSTRIP","Category":"Leisure&Culture","subCategory":"Speedway","Type":"SPEEDWAY","imageName":"speedway"}},{"type":"Feature","geometry":{"type":"Point","coordinates":[-81.7906068399,28.0318664323]},"properties":{"State":"Florida","County":"POLK","City":"WINTER HAVEN","Address":"5640 SR 542 W","Zipcode":33880,"Name":"AUBURNDALE SPEEDWAY","Category":"Leisure&Culture","subCategory":"Speedway","Type":"SPEEDWAY","imageName":"speedway"}},{"type":"Feature","geometry":{"type":"Point","coordinates":[-81.8879246962,28.1513033111]},"properties":{"State":"Florida","County":"POLK","City":"LAKELAND","Address":"8100 SR 33 N","Zipcode":33809,"Name":"LAKELAND DRAG STRIP","Category":"Leisure&Culture","subCategory":"Speedway","Type":"SPEEDWAY","imageName":"speedway"}},{"type":"Feature","geometry":{"type":"Point","coordinates":[-81.6435065751,29.5718310665]},"properties":{"State":"Florida","County":"PUTNAM","City":"SATSUMA","Address":"1009 S US HWY 17","Zipcode":32189,"Name":"PUTNAM COUNTY SPEEDWAY","Category":"Leisure&Culture","subCategory":"Speedway","Type":"SPEEDWAY","imageName":"speedway"}},{"type":"Feature","geometry":{"type":"Point","coordinates":[-86.9315069928,30.5953973083]},"properties":{"State":"Florida","County":"SANTA ROSA","City":"MILTON","Address":"9359 NICHOLS LAKE RD","Zipcode":32583,"Name":"SOUTHERN RACEWAY","Category":"Leisure&Culture","subCategory":"Speedway","Type":"SPEEDWAY","imageName":"speedway"}},{"type":"Feature","geometry":{"type":"Point","coordinates":[-86.7900052661,30.6868425717]},"properties":{"State":"Florida","County":"SANTA ROSA","City":"HOLT","Address":"7134 GARNER LANDING RD","Zipcode":32564,"Name":"EMERALD COAST DRAGWAY","Category":"Leisure&Culture","subCategory":"Speedway","Type":"SPEEDWAY","imageName":"speedway"}},{"type":"Feature","geometry":{"type":"Point","coordinates":[-86.579429474,30.9085335194]},"properties":{"State":"Florida","County":"OKALOOSA","City":"BAKER","Address":"7395 OLD RIVER ROAD","Zipcode":32531,"Name":"OAK GROVE MOTORSPORT PARK","Category":"Leisure&Culture","subCategory":"Speedway","Type":"SPEEDWAY","imageName":"speedway"}},{"type":"Feature","geometry":{"type":"Point","coordinates":[-80.4091987283,25.4527534843]},"properties":{"State":"Florida","County":"MIAMI-DADE","City":"HOMESTEAD","Address":"1 SPEEDWAY BLVD","Zipcode":33035,"Name":"HOMESTEAD MIAMI SPEEDWAY","Category":"Leisure&Culture","subCategory":"Speedway","Type":"SPEEDWAY","imageName":"speedway"}},{"type":"Feature","geometry":{"type":"Point","coordinates":[-81.0700133679,29.0138208483]},"properties":{"State":"Florida","County":"VOLUSIA","City":"NEW SMYRNA BEACH","Address":"3939 SR 44","Zipcode":32168,"Name":"NEW SMYRNA SPEEDWAY","Category":"Leisure&Culture","subCategory":"Speedway","Type":"SPEEDWAY","imageName":"speedway"}},{"type":"Feature","geometry":{"type":"Point","coordinates":[-82.2714135202,29.7578972678]},"properties":{"State":"Florida","County":"ALACHUA","City":"GAINESVILLE","Address":"11211 N CO RD 225","Zipcode":32609,"Name":"GAINESVILLE RACEWAY","Category":"Leisure&Culture","subCategory":"Speedway","Type":"SPEEDWAY","imageName":"speedway"}},{"type":"Feature","geometry":{"type":"Point","coordinates":[-87.3082064321,30.5031912669]},"properties":{"State":"Florida","County":"ESCAMBIA","City":"PENSACOLA","Address":"7451 PINE FOREST RD","Zipcode":32526,"Name":"FIVE FLAGS SPEEDWAY","Category":"Leisure&Culture","subCategory":"Speedway","Type":"SPEEDWAY","imageName":"speedway"}},{"type":"Feature","geometry":{"type":"Point","coordinates":[-83.1573222525,30.5753501764]},"properties":{"State":"Florida","County":"HAMILTON","City":"JENNINGS","Address":"4960 NW CO RD 152","Zipcode":32053,"Name":"JENNINGS GP (NORTH FLORIDA MOTORSPORTS PARK)","Category":"Leisure&Culture","subCategory":"Speedway","Type":"SPEEDWAY","imageName":"speedway"}},{"type":"Feature","geometry":{"type":"Point","coordinates":[-81.3551616678,27.4501604175]},"properties":{"State":"Florida","County":"HIGHLANDS","City":"SEBRING","Address":"113 MIDWAY DR","Zipcode":33870,"Name":"SEBRING INTERNATIONAL RACEWAY","Category":"Leisure&Culture","subCategory":"Speedway","Type":"SPEEDWAY","imageName":"speedway"}},{"type":"Feature","geometry":{"type":"Point","coordinates":[-81.4031864901,26.4284122554]},"properties":{"State":"Florida","County":"COLLIER","City":"IMMOKALEE","Address":"166 AIRPARK BLVD","Zipcode":34142,"Name":"IMMOKALEE REGIONAL RACEWAY","Category":"Leisure&Culture","subCategory":"Speedway","Type":"SPEEDWAY","imageName":"speedway"}},{"type":"Feature","geometry":{"type":"Point","coordinates":[-82.6116844283,29.9940159121]},"properties":{"State":"Florida","County":"COLUMBIA","City":"LAKE CITY","Address":"1022 SW HOWELL ST","Zipcode":32024,"Name":"ALL-TECH RACEWAY","Category":"Leisure&Culture","subCategory":"Speedway","Type":"SPEEDWAY","imageName":"speedway"}},{"type":"Feature","geometry":{"type":"Point","coordinates":[-80.7491582854,27.2890692128]},"properties":{"State":"Florida","County":"OKEECHOBEE","City":"OKEECHOBEE","Address":"7543 NE 48TH ST","Zipcode":34974,"Name":"THUNDER CROSS MOTORSPORTS COMPLEX","Category":"Leisure&Culture","subCategory":"Speedway","Type":"SPEEDWAY","imageName":"speedway"}},{"type":"Feature","geometry":{"type":"Point","coordinates":[-82.6158880407,30.125333231]},"properties":{"State":"Florida","County":"COLUMBIA","City":"LAKE CITY","Address":"287 SE RACE TRACK LN","Zipcode":32025,"Name":"NORTH FLORIDA SPEEDWAY","Category":"Leisure&Culture","subCategory":"Speedway","Type":"SPEEDWAY","imageName":"speedway"}},{"type":"Feature","geometry":{"type":"Point","coordinates":[-81.0900762543,26.7679860122]},"properties":{"State":"Florida","County":"HENDRY","City":"CLEWISTON","Address":"9985 W US HWY 27","Zipcode":33440,"Name":"HENDRY COUNTY MOTOR SPORTS PARK (SUGARLAND MOTORSPORTS PARK)","Category":"Leisure&Culture","subCategory":"Speedway","Type":"SPEEDWAY","imageName":"speedway"}},{"type":"Feature","geometry":{"type":"Point","coordinates":[-82.3882429586,27.8845432874]},"properties":{"State":"Florida","County":"HILLSBOROUGH","City":"TAMPA","Address":"6311 BURTS RD","Zipcode":33619,"Name":"EAST BAY RACEWAY","Category":"Leisure&Culture","subCategory":"Speedway","Type":"SPEEDWAY","imageName":"speedway"}},{"type":"Feature","geometry":{"type":"Point","coordinates":[-82.6062262799,29.4736507723]},"properties":{"State":"Florida","County":"LEVY","City":"ARCHER","Address":"9950 NE SR 24","Zipcode":32618,"Name":"BRONSON MOTOR SPEEDWAY","Category":"Leisure&Culture","subCategory":"Speedway","Type":"SPEEDWAY","imageName":"speedway"}},{"type":"Feature","geometry":{"type":"Point","coordinates":[-81.0939620888,28.5413878848]},"properties":{"State":"Florida","County":"ORANGE","City":"ORLANDO","Address":"19442 E COLONIAL DR","Zipcode":32820,"Name":"ORLANDO SPEED WORLD DRAGWAY & OVAL TRACK","Category":"Leisure&Culture","subCategory":"Speedway","Type":"SPEEDWAY","imageName":"speedway"}},{"type":"Feature","geometry":{"type":"Point","coordinates":[-80.5780244724,27.7701013206]},"properties":{"State":"Florida","County":"INDIAN RIVER","City":"FELLSMERE","Address":"100 MESA PARK BLVD","Zipcode":32948,"Name":"MESA PARK","Category":"Leisure&Culture","subCategory":"Speedway","Type":"SPEEDWAY","imageName":"speedway"}},{"type":"Feature","geometry":{"type":"Point","coordinates":[-82.32489632,27.4662146504]},"properties":{"State":"Florida","County":"MANATEE","City":"BRADENTON","Address":"21000 A EAST SR 64","Zipcode":34212,"Name":"DESOTO SUPER SPEEDWAY (CLOSED)","Category":"Leisure&Culture","subCategory":"Speedway","Type":"SPEEDWAY","imageName":"speedway"}},{"type":"Feature","geometry":{"type":"Point","coordinates":[-82.1756751063,29.2571221862]},"properties":{"State":"Florida","County":"MARION","City":"OCALA","Address":"6849 NW GAINESVILLE RD","Zipcode":34475,"Name":"HARDROCK CYCLE PARK","Category":"Leisure&Culture","subCategory":"Speedway","Type":"SPEEDWAY","imageName":"speedway"}},{"type":"Feature","geometry":{"type":"Point","coordinates":[-82.1759435824,29.2625518646]},"properties":{"State":"Florida","County":"MARION","City":"OCALA","Address":"7197 NW GAINESVILLE RD","Zipcode":34475,"Name":"MARION COUNTY SPEEDWAY","Category":"Leisure&Culture","subCategory":"Speedway","Type":"SPEEDWAY","imageName":"speedway"}},{"type":"Feature","geometry":{"type":"Point","coordinates":[-82.1866827683,29.2825956751]},"properties":{"State":"Florida","County":"MARION","City":"OCALA","Address":"9050 NW GAINESVILLE RD","Zipcode":34482,"Name":"BUBBA RACEWAY PARK","Category":"Leisure&Culture","subCategory":"Speedway","Type":"SPEEDWAY","imageName":"speedway"}},{"type":"Feature","geometry":{"type":"Point","coordinates":[-82.5401194592,27.6061422154]},"properties":{"State":"Florida","County":"MANATEE","City":"PALMETTO","Address":"10101 US HWY 41","Zipcode":34221,"Name":"ANDERSEN RACING TEAM","Category":"Leisure&Culture","subCategory":"Speedway","Type":"SPEEDWAY","imageName":"speedway"}},{"type":"Feature","geometry":{"type":"Point","coordinates":[-81.9441469928,28.8641586216]},"properties":{"State":"Florida","County":"LAKE","City":"FRUITLAND PARK","Address":"35400 MICRO RACE TRACK RD","Zipcode":34731,"Name":"ORIGINAL 1958 LEESBURG SPEEDWAY PARK","Category":"Leisure&Culture","subCategory":"Speedway","Type":"SPEEDWAY","imageName":"speedway"}},{"type":"Feature","geometry":{"type":"Point","coordinates":[-81.3794184305,28.411844199]},"properties":{"State":"Florida","County":"ORANGE","City":"ORLANDO","Address":"10694 COSMONAUT BLVD (LOT103)","Zipcode":32824,"Name":"ORLANDO KART CENTER","Category":"Leisure&Culture","subCategory":"Speedway","Type":"SPEEDWAY","imageName":"speedway"}},{"type":"Feature","geometry":{"type":"Point","coordinates":[-85.3911089928,30.5680766274]},"properties":{"State":"Florida","County":"JACKSON","City":"FOUNTAIN","Address":"2516 COUNTY LINE RD","Zipcode":32438,"Name":"COUNTY LINE ACTION SPORTS PARK","Category":"Leisure&Culture","subCategory":"Speedway","Type":"SPEEDWAY","imageName":"speedway"}},{"type":"Feature","geometry":{"type":"Point","coordinates":[-83.1300483436,30.4874386941]},"properties":{"State":"Florida","County":"HAMILTON","City":"JASPER","Address":"5467 SR 6 W","Zipcode":32052,"Name":"CROSS ROADS SPEEDWAY","Category":"Leisure&Culture","subCategory":"Speedway","Type":"SPEEDWAY","imageName":"speedway"}},{"type":"Feature","geometry":{"type":"Point","coordinates":[-82.2059744458,28.3479258761]},"properties":{"State":"Florida","County":"PASCO","City":"DADE CITY","Address":"36722 SR 52","Zipcode":33525,"Name":"DADE CITY RACEWAY","Category":"Leisure&Culture","subCategory":"Speedway","Type":"SPEEDWAY","imageName":"speedway"}},{"type":"Feature","geometry":{"type":"Point","coordinates":[-81.958688968,30.7464870269]},"properties":{"State":"Florida","County":"NASSAU","City":"HILLIARD","Address":"28422 LIBERTY TRL","Zipcode":32046,"Name":"NORTH FLORIDA MOTOCROSS","Category":"Leisure&Culture","subCategory":"Speedway","Type":"SPEEDWAY","imageName":"speedway"}},{"type":"Feature","geometry":{"type":"Point","coordinates":[-81.2703765116,29.4947241383]},"properties":{"State":"Florida","County":"FLAGLER","City":"BUNNELL","Address":"2529 N STATE ST","Zipcode":32110,"Name":"PAX TRAX MOTOCROSS PARK","Category":"Leisure&Culture","subCategory":"Speedway","Type":"SPEEDWAY","imageName":"speedway"}},{"type":"Feature","geometry":{"type":"Point","coordinates":[-82.1725962675,29.8099604812]},"properties":{"State":"Florida","County":"ALACHUA","City":"WALDO","Address":"16258 NE US HWY 301","Zipcode":32694,"Name":"WALDO MOTORSPORTS LLC","Category":"Leisure&Culture","subCategory":"Speedway","Type":"SPEEDWAY","imageName":"speedway"}},{"type":"Feature","geometry":{"type":"Point","coordinates":[-81.0696889962,29.1859090034]},"properties":{"State":"Florida","County":"VOLUSIA","City":"DAYTONA BEACH","Address":"1801 INTERNATIONAL SPEEDWAY BLVD","Zipcode":32114,"Name":"DAYTONA INTERNATIONAL SPEEDWAY","Category":"Leisure&Culture","subCategory":"Speedway","Type":"SPEEDWAY","imageName":"speedway"}},{"type":"Feature","geometry":{"type":"Point","coordinates":[-81.3451983891,29.2152633462]},"properties":{"State":"Florida","County":"VOLUSIA","City":"DE LEON SPRINGS","Address":"1500 SR 40","Zipcode":32130,"Name":"VOLUSIA SPEEDWAY PARK","Category":"Leisure&Culture","subCategory":"Speedway","Type":"SPEEDWAY","imageName":"speedway"}},{"type":"Feature","geometry":{"type":"Point","coordinates":[-82.3152468377,28.8076550206]},"properties":{"State":"Florida","County":"CITRUS","City":"INVERNESS","Address":"3600 S FLORIDA AVE","Zipcode":34450,"Name":"CITRUS COUNTY SPEEDWAY","Category":"Leisure&Culture","subCategory":"Speedway","Type":"SPEEDWAY","imageName":"speedway"}},{"type":"Feature","geometry":{"type":"Point","coordinates":[-82.0004448138,26.9088437545]},"properties":{"State":"Florida","County":"CHARLOTTE","City":"PUNTA GORDA","Address":"8655 PIPER RD","Zipcode":33982,"Name":"CHARLOTTE COUNTY SPEEDWAY (PUNTA GORDA SPEEDWAY)","Category":"Leisure&Culture","subCategory":"Speedway","Type":"SPEEDWAY","imageName":"speedway"}},{"type":"Feature","geometry":{"type":"Point","coordinates":[-80.3057227442,26.9195289936]},"properties":{"State":"Florida","County":"PALM BEACH","City":"JUPITER","Address":"17047 BEELINE HIGHWAY","Zipcode":33478,"Name":"PALM BEACH INTERNATIONAL RACEWAY (MOROSO MOTORSPORTS PARK)","Category":"Leisure&Culture","subCategory":"Speedway","Type":"SPEEDWAY","imageName":"speedway"}},{"type":"Feature","geometry":{"type":"Point","coordinates":[-82.4214059158,28.3215890153]},"properties":{"State":"Florida","County":"PASCO","City":"LAND O LAKES","Address":"23846 SR 52","Zipcode":34639,"Name":"FLORIDA DIRT MOTOR SPEEDWAY","Category":"Leisure&Culture","subCategory":"Speedway","Type":"SPEEDWAY","imageName":"speedway"}},{"type":"Feature","geometry":{"type":"Point","coordinates":[-82.3263575222,27.4740470694]},"properties":{"State":"Florida","County":"MANATEE","City":"BRADENTON","Address":"21000 FL-64","Zipcode":34212,"Name":"BRADENTON MOTOSPORTS PARK","Category":"Leisure&Culture","subCategory":"Speedway","Type":"SPEEDWAY","imageName":"speedway"}},{"type":"Feature","geometry":{"type":"Point","coordinates":[-81.8316915442,30.5934781423]},"properties":{"State":"Florida","County":"NASSAU","City":"CALLAHAN","Address":"543455 US HWY 1","Zipcode":32011,"Name":"CALLAHAN SPEEDWAY","Category":"Leisure&Culture","subCategory":"Speedway","Type":"SPEEDWAY","imageName":"speedway"}}]}